{
    "London": [
        {
            "GMT": "0",
            "codeIataAirport": "BQH",
            "codeIataCity": "LON",
            "codeIcaoAirport": "EGKB",
            "codeIso2Country": "GB",
            "latitudeAirport": 51.333332,
            "longitudeAirport": 0.033333,
            "nameAirport": "Biggin Hill",
            "nameCountry": "United Kingdom",
            "phone": "",
            "timezone": "Europe/London"
        },
        {
            "GMT": "0",
            "codeIataAirport": "LCY",
            "codeIataCity": "LON",
            "codeIcaoAirport": "EGLC",
            "codeIso2Country": "GB",
            "latitudeAirport": 51.5,
            "longitudeAirport": 0.05,
            "nameAirport": "London City Airport",
            "nameCountry": "United Kingdom",
            "phone": "",
            "timezone": "Europe/London"
        },
        {
            "GMT": "0",
            "codeIataAirport": "LGW",
            "codeIataCity": "LON",
            "codeIcaoAirport": "EGKK",
            "codeIso2Country": "GB",
            "latitudeAirport": 51.156807,
            "longitudeAirport": -0.161863,
            "nameAirport": "Gatwick",
            "nameCountry": "United Kingdom",
            "phone": "+44 (0) 844 8",
            "timezone": "Europe/London"
        },
        {
            "GMT": "0",
            "codeIataAirport": "LHR",
            "codeIataCity": "LON",
            "codeIcaoAirport": "EGLL",
            "codeIso2Country": "GB",
            "latitudeAirport": 51.469604,
            "longitudeAirport": -0.453566,
            "nameAirport": "Heathrow",
            "nameCountry": "United Kingdom",
            "phone": "0844 335 1801",
            "timezone": "Europe/London"
        },
        {
            "GMT": "0",
            "codeIataAirport": "LTN",
            "codeIataCity": "LON",
            "codeIcaoAirport": "EGGW",
            "codeIso2Country": "GB",
            "latitudeAirport": 51.87977,
            "longitudeAirport": -0.376232,
            "nameAirport": "Luton Airport",
            "nameCountry": "United Kingdom",
            "phone": "+44(0) 1582 4",
            "timezone": "Europe/London"
        },
        {
            "GMT": "0",
            "codeIataAirport": "SEN",
            "codeIataCity": "LON",
            "codeIcaoAirport": "EGMC",
            "codeIso2Country": "GB",
            "latitudeAirport": 51.572777,
            "longitudeAirport": 0.701389,
            "nameAirport": "Southend",
            "nameCountry": "United Kingdom",
            "phone": "",
            "timezone": "Europe/London"
        },
        {
            "GMT": "0",
            "codeIataAirport": "STN",
            "codeIataCity": "LON",
            "codeIcaoAirport": "EGSS",
            "codeIso2Country": "GB",
            "latitudeAirport": 51.889267,
            "longitudeAirport": 0.262703,
            "nameAirport": "Stansted",
            "nameCountry": "United Kingdom",
            "phone": "",
            "timezone": "Europe/London"
        }
    ],
    "Paris": [
        {
            "GMT": "1",
            "codeIataAirport": "BVA",
            "codeIataCity": "PAR",
            "codeIcaoAirport": "LFOB",
            "codeIso2Country": "FR",
            "latitudeAirport": 49.459488,
            "longitudeAirport": 2.110815,
            "nameAirport": "Beauvais-Tille",
            "nameCountry": "France",
            "phone": "",
            "timezone": "Europe/Paris"
        },
        {
            "GMT": "1",
            "codeIataAirport": "CDG",
            "codeIataCity": "PAR",
            "codeIcaoAirport": "LFPG",
            "codeIso2Country": "FR",
            "latitudeAirport": 49.003197,
            "longitudeAirport": 2.567023,
            "nameAirport": "Charles De Gaulle",
            "nameCountry": "France",
            "phone": "(01) 4862 121",
            "timezone": "Europe/Paris"
        },
        {
            "GMT": "1",
            "codeIataAirport": "LBG",
            "codeIataCity": "PAR",
            "codeIcaoAirport": "LFPB",
            "codeIso2Country": "FR",
            "latitudeAirport": 48.971943,
            "longitudeAirport": 2.4425,
            "nameAirport": "Le Bourget",
            "nameCountry": "France",
            "phone": "",
            "timezone": "Europe/Paris"
        },
        {
            "GMT": "1",
            "codeIataAirport": "ORY",
            "codeIataCity": "PAR",
            "codeIcaoAirport": "LFPO",
            "codeIso2Country": "FR",
            "latitudeAirport": 48.728283,
            "longitudeAirport": 2.3597,
            "nameAirport": "Orly",
            "nameCountry": "France",
            "phone": "01-49-75-5252",
            "timezone": "Europe/Paris"
        },
        {
            "GMT": "1",
            "codeIataAirport": "POX",
            "codeIataCity": "PAR",
            "codeIcaoAirport": "LFPT",
            "codeIso2Country": "FR",
            "latitudeAirport": 49.05,
            "longitudeAirport": 2.1,
            "nameAirport": "Paris Cergy Pontoise",
            "nameCountry": "France",
            "phone": "",
            "timezone": "Europe/Paris"
        },
        {
            "GMT": "1",
            "codeIataAirport": "XCR",
            "codeIataCity": "PAR",
            "codeIcaoAirport": "LFOK",
            "codeIso2Country": "FR",
            "latitudeAirport": 48.767776,
            "longitudeAirport": 4.201111,
            "nameAirport": "Vatry International",
            "nameCountry": "France",
            "phone": "",
            "timezone": "Europe/Paris"
        }
    ],
    "Amsterdam": [
        {
            "GMT": "1",
            "codeIataAirport": "AMS",
            "codeIataCity": "AMS",
            "codeIcaoAirport": "EHAM",
            "codeIso2Country": "NL",
            "latitudeAirport": 52.30907,
            "longitudeAirport": 4.763385,
            "nameAirport": "Schiphol",
            "nameCountry": "Netherlands",
            "phone": "",
            "timezone": "Europe/Amsterdam"
        }
    ],
    "Madrid": [
        {
            "GMT": "1",
            "codeIataAirport": "MAD",
            "codeIataCity": "MAD",
            "codeIcaoAirport": "LEMD",
            "codeIso2Country": "ES",
            "latitudeAirport": 40.46515,
            "longitudeAirport": -3.570209,
            "nameAirport": "Barajas",
            "nameCountry": "Spain",
            "phone": "902-404-704",
            "timezone": "Europe/Madrid"
        },
        {
            "GMT": "1",
            "codeIataAirport": "TOJ",
            "codeIataCity": "MAD",
            "codeIcaoAirport": "LETO",
            "codeIso2Country": "ES",
            "latitudeAirport": 40.455555,
            "longitudeAirport": -3.546667,
            "nameAirport": "Torrejon AFB",
            "nameCountry": "Spain",
            "phone": "",
            "timezone": "Europe/Madrid"
        }
    ],
    "Frankfurt": [
        {
            "GMT": "1",
            "codeIataAirport": "FRA",
            "codeIataCity": "FRA",
            "codeIcaoAirport": "EDDF",
            "codeIso2Country": "DE",
            "latitudeAirport": 50.050735,
            "longitudeAirport": 8.570773,
            "nameAirport": "Frankfurt International Airport",
            "nameCountry": "Germany",
            "phone": "+49 (0) 1805",
            "timezone": "Europe/Berlin"
        },
        {
            "GMT": "1",
            "codeIataAirport": "HHN",
            "codeIataCity": "FRA",
            "codeIcaoAirport": "EDFH",
            "codeIso2Country": "DE",
            "latitudeAirport": 49.948334,
            "longitudeAirport": 7.264167,
            "nameAirport": "Frankfurt-Hahn",
            "nameCountry": "Germany",
            "phone": "",
            "timezone": "Europe/Berlin"
        }
    ],
    "Rome": [
        {
            "GMT": "1",
            "codeIataAirport": "CIA",
            "codeIataCity": "ROM",
            "codeIcaoAirport": "LIRA",
            "codeIso2Country": "IT",
            "latitudeAirport": 41.799065,
            "longitudeAirport": 12.590987,
            "nameAirport": "Ciampino",
            "nameCountry": "Italy",
            "phone": "",
            "timezone": "Europe/Rome"
        },
        {
            "GMT": "1",
            "codeIataAirport": "FCO",
            "codeIataCity": "ROM",
            "codeIcaoAirport": "LIRF",
            "codeIso2Country": "IT",
            "latitudeAirport": 41.794594,
            "longitudeAirport": 12.250346,
            "nameAirport": "Leonardo Da Vinci (Fiumicino)",
            "nameCountry": "Italy",
            "phone": "+39 06-65951",
            "timezone": "Europe/Rome"
        }
    ],
    "Moscow": [
        {
            "GMT": "3",
            "codeIataAirport": "DME",
            "codeIataCity": "MOW",
            "codeIcaoAirport": "UUDD",
            "codeIso2Country": "RU",
            "latitudeAirport": 55.414566,
            "longitudeAirport": 37.899494,
            "nameAirport": "Domodedovo",
            "nameCountry": "Russia",
            "phone": "495-933-6666",
            "timezone": "Europe/Moscow"
        },
        {
            "GMT": "3",
            "codeIataAirport": "SVO",
            "codeIataCity": "MOW",
            "codeIcaoAirport": "UUEE",
            "codeIso2Country": "RU",
            "latitudeAirport": 55.966324,
            "longitudeAirport": 37.416573,
            "nameAirport": "Sheremetyevo International",
            "nameCountry": "Russia",
            "phone": "+7 495 232-65",
            "timezone": "Europe/Moscow"
        },
        {
            "GMT": "3",
            "codeIataAirport": "VKO",
            "codeIataCity": "MOW",
            "codeIcaoAirport": "UUWW",
            "codeIso2Country": "RU",
            "latitudeAirport": 55.60315,
            "longitudeAirport": 37.2921,
            "nameAirport": "Vnukovo",
            "nameCountry": "Russia",
            "phone": "",
            "timezone": "Europe/Moscow"
        }
    ],
    "Lisbon": [
        {
            "GMT": "0",
            "codeIataAirport": "LIS",
            "codeIataCity": "LIS",
            "codeIcaoAirport": "LPPT",
            "codeIso2Country": "PT",
            "latitudeAirport": 38.770042,
            "longitudeAirport": -9.128165,
            "nameAirport": "Lisbon Portela",
            "nameCountry": "Portugal",
            "phone": "+351 218 413",
            "timezone": "Europe/Lisbon"
        }
    ],
    "Dublin": [
        {
            "GMT": "0",
            "codeIataAirport": "DUB",
            "codeIataCity": "DUB",
            "codeIcaoAirport": "EIDW",
            "codeIso2Country": "IE",
            "latitudeAirport": 53.42728,
            "longitudeAirport": -6.24357,
            "nameAirport": "Dublin International",
            "nameCountry": "Ireland",
            "phone": "01/814-1111",
            "timezone": "Europe/Dublin"
        }
    ],
    "Vienna": [
        {
            "GMT": "1",
            "codeIataAirport": "VIE",
            "codeIataCity": "VIE",
            "codeIcaoAirport": "LOWW",
            "codeIso2Country": "AT",
            "latitudeAirport": 48.11972,
            "longitudeAirport": 16.563583,
            "nameAirport": "Vienna International",
            "nameCountry": "Austria",
            "phone": "01/70070",
            "timezone": "Europe/Vienna"
        }
    ],
    "Zurich": [
        {
            "GMT": "1",
            "codeIataAirport": "ZRH",
            "codeIataCity": "ZRH",
            "codeIcaoAirport": "LSZH",
            "codeIso2Country": "CH",
            "latitudeAirport": 47.450603,
            "longitudeAirport": 8.561746,
            "nameAirport": "Zurich",
            "nameCountry": "Switzerland",
            "phone": "+41 (0) 43 81",
            "timezone": "Europe/Zurich"
        }
    ]
}